latitude,longitude,name
40.7128,-74.0060,New York
35.6895,139.6917,Tokyo
37.566, 126.978, Séoul
34.702, 135.495, Osaka
64.984, -18.105, Islande
29.934, 52.891, Persépolis
50.436, 5.970, Spa-Francorchamps